{
"positions": [
{
"title":"「街芸術キャラバン「春」",
"place":"ソウル森公園",
"addr":"ソウル森公園",
"lat": 37.54438781,
"lng": 127.0374424,
"hp":"https://parks.seoul.go.kr/template/sub/seoulforest.do",
"map":"11331488",
"img":"https://culture.seoul.go.kr/cmmn/file/getImage.do?atchFileId=8e42e36c456a4584b44099db033a5d91&thumb=Y",
"m_no":"72"

},
{
"title":"「街芸術キャラバン「春」",
"place":"ノウォン光の庭園",
"addr":"Nowon Light Garden",	
"lat": 37.6240625,
"lng": 127.0918192,
"hp":"https://www.nowon.kr/www/info/info1/info1_06/info1_06_08/info1_06_08_01.jsp",
"map":"1285286792",
"img":"https://culture.seoul.go.kr/cmmn/file/getImage.do?atchFileId=8e42e36c456a4584b44099db033a5d91&thumb=Y",
"m_no":"72"
},
{
"title":"「街芸術キャラバン「春」",
"place":"DDP東大門デザインプラザ",
"addr":"DDP東大門デザインプラザ",	
"lat": 37.5665256,
"lng": 127.0092236,
"hp":"https://ddp.or.kr/?menuno=228",
"map":"25022134",
"img":"https://culture.seoul.go.kr/cmmn/file/getImage.do?atchFileId=8e42e36c456a4584b44099db033a5d91&thumb=Y",
"m_no":"72"
},
{
"title":"「街芸術キャラバン「春」",
"place":"平和文化陣地",
"addr":"Peace Culture Bunker",	
"lat": 37.6910681,
"lng": 127.0491028,
"hp":"https://culturebunker.or.kr",
"map":"1113074324",
"img":"https://culture.seoul.go.kr/cmmn/file/getImage.do?atchFileId=8e42e36c456a4584b44099db033a5d91&thumb=Y",
"m_no":"72"
},
{
"title":"「街芸術キャラバン「春」",
"place":"仙遊島公園",
"addr":"仙遊島公園",	
"lat": 37.5431196,
"lng": 126.9001167,
"hp":"https://parks.seoul.go.kr/template/sub/seonyudo.do",
"map":"17163566",
"img":"https://culture.seoul.go.kr/cmmn/file/getImage.do?atchFileId=8e42e36c456a4584b44099db033a5d91&thumb=Y",
"m_no":"72"
},
{
"title":"ナルとバスキング",
"place":"ナルアートセンター",
"addr":"광진문화재단 나루아트센터",
"lat": 37.5337907,
"lng": 127.0729889,
"hp":"https://www.naruart.or.kr",
"map":"17064649",
"img":"https://culture.seoul.go.kr/cmmn/file/getImage.do?atchFileId=27a4ae3b1bea4ab1a3b790d0dbbf0f12&thumb=Y",
"m_no":"74"
},
{
"title":"春散歩プロジェクト「夏迎え」",
"place":"西ソウル芸術教育センター屋外水槽",
"addr":"Seo-Seoul Arts Education Center",
"lat": 37.5278242,
"lng": 126.8310531,
"hp":"https://www.sfac.or.kr/artspace/artspace/arteducation_main.do",
"map":"1989671781",
"img":"https://culture.seoul.go.kr/cmmn/file/getImage.do?atchFileId=bd6f7a2eb8c54b11a38fc5538867c70b&thumb=Y",
"m_no":"1"
},
{
"title":"HELLO! RHYTHM!",
"place":"ウンピョン文化芸術会館公演場",
"addr":"은평문화예술회관",
"lat": 37.6036744, 
"lng": 126.927865,
"hp":"https://www.efac.or.kr",
"map":"10669473",
"img":"https://culture.seoul.go.kr/cmmn/file/getImage.do?atchFileId=18c3f3abbec34c79ab6a7fbc43b06503&thumb=Y",
"m_no":"2"
},
{
"title":"2022家族環境描き大会",
"place":"ソウルエネルギードリームセンター",
"addr":"서울에너지드림센터",
"lat": 37.5626053,
"lng": 126.8910515,
"hp":"https://www.seouledc.or.kr",
"map":"19190782",
"img":"https://culture.seoul.go.kr/cmmn/file/getImage.do?atchFileId=179cb54ff9f343b8b854d49cbe01e31a&thumb=Y",
"m_no":"73"
},
{
"title":"寅年雲峴宮旧正月大宴会",
"place":"雲峴宮",
"addr":"雲峴宮",
"lat": 37.576034,
"lng": 126.987052,
"hp":"https://www.unhyeongung.or.kr",
"map":"8465462",
"img":"https://culture.seoul.go.kr/cmmn/file/getImage.do?atchFileId=6cb931b481744aa0a80f06967541edf6&thumb=Y",
"m_no":"77"
},
{
"title":"2022ソウルアシテジ冬祭り",
"place":"アルコ芸術劇場",
"addr":"アルコ芸術劇場",
"lat": 37.5823257,
"lng": 127.0029158,
"hp":"http://assitejkorea.org/business_festival_winter_info.html",
"map":"10593353",
"img":"https://culture.seoul.go.kr/cmmn/file/getImage.do?atchFileId=99394fe0a57d443ab8c08f53a4da8b18&thumb=Y",
"m_no":"78"
},
{
"title":"京義線本街冬光祭り",
"place":"京義線ブックストリート",
"addr":"京義線ブックストリート",
"lat": 37.5562364,
"lng": 126.9292978,
"hp":"https://gbookst.or.kr/",
"map":"104964874",
"img":"https://culture.seoul.go.kr/cmmn/file/getImage.do?atchFileId=1f83f66976ac40a5bd2adda1c91f2313&thumb=Y",
"m_no":"80"
},
{
"title":"オールデーミュージック",
"place":"ロッテコンサートホール",
"addr":"ロッテコンサートホール",
"lat": 37.5136096,
"lng": 127.1039833,
"hp":"https://www.lotteconcerthall.com",
"map":"27405165",
"img":"https://culture.seoul.go.kr/cmmn/file/getImage.do?atchFileId=3401a6dc7a834ca1bcd1abcd590df91e&thumb=Y",
"m_no":"79"
},
{
"title":"チョンゲチョンと文化空間",
"place":"清渓川博物館",
"addr":"清渓川博物館",
"lat": 37.5712267,
"lng": 127.0350281,
"hp":"https://www.museum.seoul.kr/cgcm/index.do",
"map":"8109515",
"img":"https://culture.seoul.go.kr/cmmn/file/getImage.do?atchFileId=e2361fa662fe49e4996cd89d98e2bf68&thumb=Y",
"m_no":"83"
},
{
"title":"青春マイクフェスティバル",
"place":"セビッ島",
"addr":"セビッ島",
"lat": 37.5116807,
"lng": 126.9947194,
"hp":"https://www.somesevit.co.kr/kr/index.do",
"map":"12322745",
"img":"https://culture.seoul.go.kr/cmmn/file/getImage.do?atchFileId=0cc5d40b3934497892fdaf761502a350&thumb=Y",
"m_no":"85"
},
{
"title":"クムチョンハモニフェスティバル",
"place":"クムチョン区役所",
"addr":"금천구청역앞",
"lat": 37.4518527,
"lng": 126.9020358,
"hp":"https://www.geumcheon.go.kr",
"map":"8203023",
"img":"https://culture.seoul.go.kr/cmmn/file/getImage.do?atchFileId=ed90c14788c24995bd964d306e1111a2&thumb=Y",
"m_no":"86"
},
{
"title":"漫画図書館＆アニメ散歩'",
"place":"ソウルアニメーションセンター",
"addr":"ソウルアニメーションセンター",
"lat": 37.5811635,
"lng": 127.0029588,
"hp":"https://www.efac.or.kr",
"map":"10593353",
"img":"https://culture.seoul.go.kr/cmmn/file/getImage.do?atchFileId=4944f139b282402ab40c0470a1368b49&thumb=Y",
"m_no":"87"
},
{
"title":"ソウル知識つなぎフェスティバル",
"place":"ソウル図書館",
"addr":"ソウル図書館 (旧京城府庁)",
"lat": 37.5662538,
"lng": 126.9779023,
"hp":"https://lib.seoul.go.kr",
"map":"18411998",
"img":"https://culture.seoul.go.kr/cmmn/file/getImage.do?atchFileId=d490643d2d6845f5822d09eaf593cee5&thumb=Y",
"m_no":"88"
},
{
"title":"ナルストリートダンスフェスティバル",
"place":"ナルアートセンター",
"addr":"광진문화재단 나루아트센터",
"lat": 37.5374525,
"lng": 127.0701298,
"hp":"http://www.naruart.or.kr/bbs/board.php?bo_table=performance&wr_id=766",
"map":"17064649",
"img":"https://culture.seoul.go.kr/cmmn/file/getImage.do?atchFileId=934db99ac6964dfbaea54804a366f5ae&thumb=Y",
"m_no":"3"
},
{
"title":"アート手作りマーケット",
"place":"文化芸術会館",
"addr":"瑞草文化芸術会館",
"lat": 37.4822205,
"lng": 127.0347029,
"hp":"http://socc.or.kr/bbs/board.php?bo_table=sub04_01&year=2022&month=6&wr_id=328&sc_no=",
"map":"20589687",
"img":"https://culture.seoul.go.kr/cmmn/file/getImage.do?atchFileId=da7ee7726abd42688b5b2bedd733c7e5&thumb=Y",
"m_no":"4"
},
{
"title":"デザートコンサート",
"place":"文化芸術会館",
"addr":"瑞草文化芸術会館",
"lat": 37.4818266,
"lng": 127.0360021,
"hp":"http://socc.or.kr/bbs/board.php?bo_table=sub04_01&year=2022&month=6&wr_id=329&sc_no=",
"map":"18855651",
"img":"https://culture.seoul.go.kr/cmmn/file/getImage.do?atchFileId=9db7972f32f1496aa46f9aea8cd39346&thumb=Y",
"m_no":"5"
},
{
"title":"名物の雲峴宮",
"place":"雲峴宮老安堂栄華楼",
"addr":"雲峴宮",
"lat": 37.5763581,
"lng": 126.9880684,
"hp":"https://www.unhyeongung.or.kr/sub/prpgram/total_list.php?sno=0&group=basic&code=B35&category=&&abmode=view&no=822&bsort=&bfsort=",
"map":"8228024",
"img":"https://culture.seoul.go.kr/cmmn/file/getImage.do?atchFileId=268b612e9c03449cb24a9a798415ce2f&thumb=Y",
"m_no":"6"
},
{
"title":"教えちゃる！[トボンマーケット]",
"place":"平和文化陣地",
"addr":"Peace Culture Bunker",
"lat": 37.6907662,
"lng": 127.0471938,
"hp":"http://www.dbfac.or.kr/front/supportManageReq/supportManageView.do?miv_pageNo=&miv_pageSize=6&total_cnt=&LISTOP=&mode=V&seq=697&searchkey=NAME&search_gb=&gubun=03&search_gb2=All&gubun2=&searchType=title&searchtxt=",
"map":"1113074324",
"img":"https://culture.seoul.go.kr/cmmn/file/getImage.do?atchFileId=135b29ce87344d73a8db134647013bf2&thumb=Y",
"m_no":"8"
},
{
"title":"2022 敦義門マーケット",
"place":"敦義門博物館村",
"addr":"敦義門博物館村",
"lat": 37.5687865,
"lng": 126.9685111,
"hp":"http://dmvillage.info/bbs/board.php?bo_table=notice&wr_id=187",
"map":"219411423",
"img":"https://culture.seoul.go.kr/cmmn/file/getImage.do?atchFileId=9cfac69fadb04c92a97d10281e7502d3&thumb=Y",
"m_no":"9"
},
{
"title":"ドゥーリーミュージアム こどもの日",
"place":"ドゥーリーミュージアム",
"addr":"Dooly Museum",
"lat": 37.6522772,
"lng": 127.0275989,
"hp":"http://www.doolymuseum.or.kr",
"map":"25132367",
"img":"https://culture.seoul.go.kr/cmmn/file/getImage.do?atchFileId=bccee4e91d9641bb939649f3c4dd2fcc&thumb=Y",
"m_no":"10"
},
{
"title":"2022 こどもの日 博物館 祭り",
"place":"漢城百済博物館",
"addr":"漢城百済博物館",
"lat": 37.5155254,
"lng": 127.1206771,
"hp":"http://baekjemuseum.seoul.go.kr",
"map":"20560529",
"img":"https://culture.seoul.go.kr/cmmn/file/getImage.do?atchFileId=f4549f34acb644f1916f737b92ab426b&thumb=Y",
"m_no":"11"
},
{
"title":"2022 ソウルバラ祭り",
"place":"中華体育公園",
"addr":"Seoul Rose Festival",
"lat": 37.6151979,
"lng": 127.0731259,
"hp":"https://www.jnfac.or.kr/mbbs/index.php?board_id=bbs02&cate=&find=&search=&ltype=&page=&md=read&no=591",
"map":"26801317",
"img":"https://culture.seoul.go.kr/cmmn/file/getImage.do?atchFileId=d166d9a1800c47b1ad9c60ce37e43fd4&thumb=Y",
"m_no":"12"
},
{
"title":"2022 月刊ミュージック",
"place":"ヤンチョン文化会館大劇場",
"addr":"양천문화회관",
"lat": 37.5166773,
"lng": 126.8633031,
"hp":"https://yfac.kr/main/site/ticket/page1.do?proc_type=view&tidx=80&prepage=%2Fmain%2Fsite%2Fticket%2Fpage1.do",
"map":"11108826",
"img":"https://culture.seoul.go.kr/cmmn/file/getImage.do?atchFileId=b46157de2e734d5c9d45e7f284bec8f9&thumb=Y",
"m_no":"13"
},
{
"title":"春散歩プロジェクト「春・春・春」",
"place":"西ソウル芸術教育センター",
"addr":"Seo-Seoul Arts Education Center",
"lat": 37.5282993,
"lng": 126.8321736,
"hp":"https://www.sfac.or.kr/artspace/artspace/arteducation_notice.do?bcIdx=131067",
"map":"1989671781",
"img":"https://culture.seoul.go.kr/cmmn/file/getImage.do?atchFileId=5515a90631364dd98ecacc883513ae9d&thumb=Y",
"m_no":"14"
},
{
"title":"ハンソン百済10周年記念音楽会",
"place":"漢城百済博物館",
"addr":"漢城百済博物館",
"lat": 37.5154331,
"lng": 127.1343724,
"hp":"https://baekjemuseum.seoul.go.kr/board/index.jsp?boardid=SBM0501000000&mmode=content&mpid=SBM0501000000&skin=notice&pid=20129&cpage=1",
"map":"20560529",
"img":"https://culture.seoul.go.kr/cmmn/file/getImage.do?atchFileId=be5412984c7b4c1d93b670393b8e0d79&thumb=Y",
"m_no":"15"
},
{
"title":"セビッ ブルーミング ガーデン",
"place":"バンポ漢江公園",
"addr":"盤浦漢江公園",
"lat": 37.5103503,
"lng": 126.9960378,
"hp":"http://www.somesevit.co.kr/kr/index.do",
"map":"8142957",
"img":"https://culture.seoul.go.kr/cmmn/file/getImage.do?atchFileId=92786219b5984dcc915619d17ab75710&thumb=Y",
"m_no":"17"
},
{
"title":"キョンチュン線ギャラリー音楽会",
"place":"京春線森の道",
"addr":"京春線森の道",
"lat": 37.6245739,
"lng": 127.0830557,
"hp":"https://www.nowonarts.kr/html/pe/performancedetail.php?param_url=https%3A%2F%2Fwww.nowonarts.kr%2Fhtml%2Fpe%2Fperformanceinfo.php%3F%26cate%3D%26skin%3D%26search_state%3D1%26search_syear%3D%26search_smonth%3D%26search_eyear%3D%26search_emonth%3D%26search_order%3D%26search_startPage%3D&idx=259",
"map":"1574873219",
"img":"https://culture.seoul.go.kr/cmmn/file/getImage.do?atchFileId=0fbb922d94ea41ee8c7f688f2d6edddf&thumb=Y",
"m_no":"18"
},
{
"title":"マッコリchallenge",
"place":"敦義門博物館村",
"addr":"敦義門博物館村",
"lat": 37.5688385,
"lng": 126.9688987,
"hp":"http://dmvillage.info/bbs/board.php?bo_table=notice&wr_id=176",
"map":"219411423",
"img":"https://culture.seoul.go.kr/cmmn/file/getImage.do?atchFileId=3acd975d00454ca6a88f83872727a092&thumb=Y",
"m_no":"20"
},
{
"title":"笙でみる音ー空間音",
"place":"ソウル敦化門国楽堂",
"addr":"Seoul Donhwamun Traditional Theater",
"lat": 37.5772238,
"lng": 126.9905745,
"hp":"https://www.sdtt.or.kr",
"map":"26952171",
"img":"https://culture.seoul.go.kr/cmmn/file/getImage.do?atchFileId=fa8a3bfd38bf40828a6ade67c67cf971&thumb=Y",
"m_no":"21"
},
{
"title":"ビックムーブ with Lia KIM",
"place":"DDP オウリム広場",
"addr":"DDP東大門デザインプラザ",
"lat": 37.5667521,
"lng": 127.0101046,
"hp":"https://ddp.or.kr/index.html?menuno=230&siteno=2&bbsno=485&boardno=16&cateSched=16&bbstopno=485&act=view",
"map":"https://www.ddp.or.kr",
"img":"https://culture.seoul.go.kr/cmmn/file/getImage.do?atchFileId=e0997b28dfc549f2b12ec31537f6e050&thumb=Y",
"m_no":"23"
},
{
"title":"ソウル光灯籠祭り",
"place":"清渓川",
"addr":"清渓川",
"lat": 37.5691015,
"lng": 126.9786692,
"hp":"https://korean.visitseoul.net/seoullantern",
"map":"10849847",
"img":"https://culture.seoul.go.kr/cmmn/file/getImage.do?atchFileId=cfb3a3160e164e2ab87f380ce61a1df3&thumb=Y",
"m_no":"28"
},
{
"title":"トボン山フェスティバル",
"place":"多楽園体育公園",
"addr":"다락원 체육공원",
"lat": 37.6918821,
"lng": 127.0469367,
"hp":"https://www.dobongsanf.com/",
"map":"1829020380",
"img":"https://culture.seoul.go.kr/cmmn/file/getImage.do?atchFileId=52c30bb5de2e4cb2aa9720f513b2f074&thumb=Y",
"m_no":"41"
},
{
"title":"第26回カンドン先史文化祭り",
"place":"アムサ歴史文化公園",
"addr":"서울 강동구 암사동 137-10",
"lat": 37.5604839,
"lng": 127.132118,
"hp":"https://www.gangdong.go.kr/web/culture/contents/gdc020_010_010",
"map":"1320662444",
"img":"https://culture.seoul.go.kr/cmmn/file/getImage.do?atchFileId=426d13bbb21c4b84b1b3d7516f1d8673&thumb=Y",
"m_no":"43"
},
{
"title":"光を抱きしめたクムチョン",
"place":"クムナレアートホール",
"addr":"Geumnarae Art Hall",
"lat": 37.4564983,
"lng": 126.8957909,
"hp":"https://gcfac.or.kr/performance/commonView?gcfac_menu_cd=U0007&currRow=1&seq_no=3408&perDisGubun=performance&returnURI=%2Fperformance%2FcurrentList&serhDate=&serhPerforDisplay=&serhTitle=",
"map":"8213955",
"img":"https://culture.seoul.go.kr/cmmn/file/getImage.do?atchFileId=f1b9ab1f9a0c4ae39f869c3a8ee61f1d&thumb=Y",
"m_no":"48"
},
{
"title":"GIG(Groove In Gwanak) FESTA",
"place":"星明かりの川一帯",
"addr":"서울 관악구 신림동 808-133",
"lat": 37.4754255,
"lng": 126.9366438,
"hp":"https://www.instagram.com/story_in_gwanak/",
"map":"447656471",
"img":"https://culture.seoul.go.kr/cmmn/file/getImage.do?atchFileId=d85b373da6654ab0b618b17529d94573&thumb=Y",
"m_no":"59"
},
{
"title":"人文学青年と遊ぶ",
"place":"カフェメロウストリート",
"addr":"멜로우스트리트",
"lat": 37.4776508,
"lng": 126.9580543,
"hp":"https://naver.me/5wmgvfdq",
"map":"808993929",
"img":"https://culture.seoul.go.kr/cmmn/file/getImage.do?atchFileId=71fe3216c5e845d7bbe019b8c958c4d3&thumb=Y",
"m_no":"60"
},
{
"title":"2022 Seoul Drum Festival",
"place":"ノドル島",
"addr":"ノドル島",
"lat": 37.5177627,
"lng": 126.9596671,
"hp":"http://seouldrum.go.kr/2022/sub01.php",
"map":"8252248",
"img":"https://culture.seoul.go.kr/cmmn/file/getImage.do?atchFileId=4ace202a1f9147e186974dc6c2594a7c&thumb=Y",
"m_no":"61"
},
{
"title":"私たちは町冒険隊",
"place":"ソウル生活史博物館子ども体験室",
"addr":"ソウル生活史博物館",
"lat": 37.619671,
"lng": 127.0767099,
"hp":"https://museum.seoul.go.kr/sulm/board/NR_boardView.do",
"map":"301229963",
"img":"https://culture.seoul.go.kr/cmmn/file/getImage.do?atchFileId=7b793424ebb340059d5d25c434288643&thumb=Y",
"m_no":"62"
},
{
"title":"6月メディアセンタークァナク",
"place":"メディアセンタークァナク",
"addr":"미디어센터 관악",
"lat": 37.4823248,
"lng": 126.9163876,
"hp":"https://www.mcga.or.kr/site/main/home",
"map":"210015263",
"img":"https://culture.seoul.go.kr/cmmn/file/getImage.do?atchFileId=7fc74167620645eab09f14ec5c5a96fc&thumb=Y",
"m_no":"63"
},
{
"title":"START TRACK ART FESTIVAL",
"place":"ソウル市カンナム区ヨクサム路14ギル20",
"addr":"서울시 강남구 역삼로 14길 20",
"lat": 37.4931723,
"lng": 127.0356306,
"hp":"https://www.instagram.com/staf_seoul/",
"map":"22581123",
"img":"https://culture.seoul.go.kr/cmmn/file/getImage.do?atchFileId=446ea4ec72bb47e9b727361cc8e77401&thumb=Y",
"m_no":"64"
},
{
"title":"コンサート「春.越.家」",
"place":"南山コル韓屋村",
"addr":"南山韓屋村",
"lat": 37.5591972,
"lng": 126.9947548,
"hp":"https://www.hanokmaeul.or.kr/ko/h/events/2022-%eb%82%a8%ec%82%b0%ea%b3%a8-%ed%95%9c%ec%98%a5%ec%bd%98%ec%84%9c%ed%8a%b8-%ec%b6%98%ec%9b%94%ea%b0%80%e6%98%a5-%e8%b6%8a-%e5%ae%b6",
"map":"7897910",
"img":"https://culture.seoul.go.kr/cmmn/file/getImage.do?atchFileId=32d2eb5d4f954a8cb51d35037065ae3a&thumb=Y",
"m_no":"67"
},
{
"title":"プラットホームS1472 子供週間",
"place":"プラットフォームS1472",
"addr":"S1472 문화플랫폼",
"lat": 37.4840467,
"lng": 126.9257009,
"hp":"https://www.gfac.or.kr/html/notify/notify1_view.html?pk=1651112592475-763d2e29-2758-499d-9a99-ce9da164caa4",
"map":"1616285398",
"img":"https://culture.seoul.go.kr/cmmn/file/getImage.do?atchFileId=8d0569930d4a4ce49e25c71ea3729c4f&thumb=Y",
"m_no":"68"
},
{
"title":"サーカスキャラバン「春」",
"place":"文化備蓄基地",
"addr":"文化備蓄基地公園",
"lat": 37.5625072,
"lng": 126.8928088,
"hp":"http://www.sfac.or.kr",
"map":"27459153",
"img":"https://culture.seoul.go.kr/cmmn/file/getImage.do?atchFileId=319184cf2fbb46ad946da1917a774ff1&thumb=Y",
"m_no":"69"
},
{
"title":"美術週間「ウンピョンの顔」",
"place":"アートスムビーセンター",
"addr":"아트숨비",
"lat": 37.5993563,
"lng": 126.9207066,
"hp":"https://www.artsoombi.com",
"map":"1836168752",
"img":"https://culture.seoul.go.kr/cmmn/file/getImage.do?atchFileId=60d21a7062114b909c8df52b59cefab4&thumb=Y",
"m_no":"99"
},
{
"title":"ソウルワウ本フェスティバル",
"place":"ソギョ芸術実験センター",
"addr":"서교예술실험센터",
"lat": 37.5524522,
"lng": 126.9209199,
"hp":"https://cafe.naver.com/seoulartspace",
"map":"13490895",
"img":"https://culture.seoul.go.kr/cmmn/file/getImage.do?atchFileId=85dd1cbf252745869b6a4efa115b04fb&thumb=Y",
"m_no":"103"
},
{
"title":"ソウルイラストレーションフェア- V.11'",
"place":"コエックスDホール",
"addr":"コエックス",
"lat": 37.5116828,
"lng": 127.059151,
"hp":"http://seoulillustrationfair.co.kr/",
"map":"8106109",
"img":"https://culture.seoul.go.kr/cmmn/file/getImage.do?atchFileId=a4e3e4f42d5449918c5fac8985cc3537&thumb=Y",
"m_no":"108"
},
{
"title":"K-POP ダンスコンテスト",
"place":"プラットフォームチャン洞61",
"addr":"Chang-dong platform 61",
"lat": 37.6541966,
"lng": 127.048771,
"hp":"https://www.platform61.kr",
"map":"27609245",
"img":"https://culture.seoul.go.kr/cmmn/file/getImage.do?atchFileId=27b23f289fda41da8917b91343edc663&thumb=Y",
"m_no":"116"
},
{
"title":"近現代史推理旅行",
"place":"ソルバッ近隣公園北漢山",
"addr":"Solbat Neighborhood Park",
"lat": 37.6529618,
"lng": 127.0122387,
"hp":"https://www.gangbuk.seoul.kr/www/contents.do?key=699",
"map":"10567785",
"img":"https://culture.seoul.go.kr/cmmn/file/getImage.do?atchFileId=672055b5fbf049e88890bd32a94d6553&thumb=Y",
"m_no":"119"
},
{
"title":"第9回漢陽都城文化祭",
"place":"漢陽都城遺跡博物館",
"addr":"한양도성유적전시관",
"lat": 37.5539036,
"lng": 126.9822055,
"hp":"https://museum.seoul.go.kr/scwm/NR_index.do",
"map":"1656135016",
"img":"https://culture.seoul.go.kr/cmmn/file/getImage.do?atchFileId=ea20e6cbcd794bd6970a711abbfbbc29&thumb=Y",
"m_no":"128"
}
]
}